location,metric,winery,country,lat,lon
"Acinum winery ,Amarone della Valpolicella, Veneto, Italy",93.0,Acinum,Italy,45.5205517,10.8869911
"Aldegheri winery ,Amarone della Valpolicella, Veneto, Italy",94.0,Aldegheri,Italy,45.5153297,10.8347666
"Aldo Conterno winery ,Barolo, Piedmont, Italy",92.83333333333333,Aldo Conterno,Italy,44.6088032,7.9403041
"Allegrini winery ,Amarone della Valpolicella Classico, Veneto, Italy",92.33333333333333,Allegrini,Italy,45.53673930000001,10.9468858
"Altesino winery ,Brunello di Montalcino, Tuscany, Italy",92.23076923076923,Altesino,Italy,43.10219319999999,11.4899236
"Amantis winery ,Brunello di Montalcino, Tuscany, Italy",93.0,Amantis,Italy,43.0551015,11.4890032
"Andrea Oberto winery ,Barolo, Piedmont, Italy",92.75,Andrea Oberto,Italy,44.64799,7.922630000000001
"Antinori winery ,Bolgheri, Tuscany, Italy",93.0,Antinori,Italy,43.2043544,10.612672
"Antinori winery ,Brunello di Montalcino, Tuscany, Italy",93.0,Antinori,Italy,43.0551015,11.4890032
"Antonio Caggiano winery ,Taurasi, Southern Italy, Italy",93.5,Antonio Caggiano,Italy,41.0062315,14.9582193
"Antoniolo winery ,Gattinara, Piedmont, Italy",92.25,Antoniolo,Italy,45.6307206,8.371768
"Anzivino winery ,Gattinara, Piedmont, Italy",93.0,Anzivino,Italy,45.620149,8.371383999999999
"Arnaldo Caprai winery ,Sagrantino di Montefalco, Central Italy, Italy",93.5,Arnaldo Caprai,Italy,42.9201832,12.6442424
"Attilio Ghisolfi winery ,Barolo, Piedmont, Italy",92.66666666666667,Attilio Ghisolfi,Italy,44.5980966,7.966176600000001
"Avignonesi winery ,Vin Santo di Montepulciano, Tuscany, Italy",98.66666666666667,Avignonesi,Italy,43.1735657,11.9332981
"Bava winery ,nan, Piedmont, Italy",93.0,Bava,Italy,45.0846961,8.068000999999999
"Bel Colle winery ,Barolo, Piedmont, Italy",92.18181818181819,Bel Colle,Italy,44.6585859,7.926916599999999
"Bertani winery ,Amarone della Valpolicella Classico, Veneto, Italy",93.2,Bertani,Italy,45.50335099999999,10.9470875
"Biondi Santi winery ,Brunello di Montalcino, Tuscany, Italy",94.66666666666667,Biondi Santi,Italy,43.05586,11.4898673
"Brezza winery ,Barolo, Piedmont, Italy",92.5909090909091,Brezza,Italy,44.612291,7.941656
"Brigaldara winery ,Amarone della Valpolicella, Veneto, Italy",93.0,Brigaldara,Italy,45.5212115,10.9160232
"Brovia winery ,Barolo, Piedmont, Italy",93.66666666666667,Brovia,Italy,44.6317427,7.965743400000001
"Bruno Giacosa winery ,Barbaresco, Piedmont, Italy",95.0,Bruno Giacosa,Italy,44.7232618,8.0835572
"Bruno Giacosa winery ,Barolo, Piedmont, Italy",95.0,Bruno Giacosa,Italy,44.6088032,7.9403041
"COS winery ,Vittoria, Sicily & Sardinia, Italy",95.0,COS,Italy,37.0296949,14.5226706
"Ca' dei Zago winery ,nan, Veneto, Italy",93.0,Ca' dei Zago,Italy,45.4414662,12.3152595
"Cagliero winery ,Barolo, Piedmont, Italy",93.0,Cagliero,Italy,44.609908,7.940392
"Campo al Noce winery ,Toscana, Tuscany, Italy",93.0,Campo al Noce,Italy,43.221838,10.58125
"Cantina Bartolo Mascarello winery ,Barolo, Piedmont, Italy",94.66666666666667,Cantina Bartolo Mascarello,Italy,44.6111823,7.9403596
"Cantina Fratelli Pardi winery ,Montefalco Sagrantino, Central Italy, Italy",92.2,Cantina Fratelli Pardi,Italy,42.8924442,12.648766
"Cantina del Pino winery ,Barolo, Piedmont, Italy",93.0,Cantina del Pino,Italy,44.73080100000001,8.086580999999999
"Cantine del Notaio winery ,Aglianico del Beneventano, Southern Italy, Italy",93.0,Cantine del Notaio,Italy,40.92563260000001,15.6775519
"Caprili winery ,Brunello di Montalcino, Tuscany, Italy",92.22222222222223,Caprili,Italy,43.01692509999999,11.449463
"Casanova di Neri winery ,Brunello di Montalcino, Tuscany, Italy",95.6,Casanova di Neri,Italy,43.05586,11.4898673
"Casanova di Neri winery ,Sant'Antimo, Tuscany, Italy",93.0,Casanova di Neri,Italy,43.0573613,11.5220115
"Cascina Cucco winery ,Barolo, Piedmont, Italy",92.33333333333333,Cascina Cucco,Italy,44.613146,8.0015059
"Castello Banfi winery ,Brunello di Montalcino, Tuscany, Italy",92.23076923076923,Castello Banfi,Italy,42.980621,11.400659
"Castello dei Rampolla winery ,Toscana, Tuscany, Italy",93.71428571428571,Castello dei Rampolla,Italy,43.5409593,11.292852
"Castello di Montepò winery ,Morellino di Scansano, Tuscany, Italy",93.0,Castello di Montepò,Italy,42.7494734,11.3379113
"Castello di Nipozzano winery ,Toscana, Tuscany, Italy",93.0,Castello di Nipozzano,Italy,43.785386,11.469571
"Castello di Verduno winery ,Barolo, Piedmont, Italy",94.0,Castello di Verduno,Italy,44.66712649999999,7.9334383
"Cavallotto winery ,Barolo, Piedmont, Italy",94.5,Cavallotto,Italy,44.628496,7.977163
"Centovigne winery ,Coste della Sesia, Piedmont, Italy",92.5,Centovigne,Italy,45.5319572,8.1873109
"Cerbaiona winery ,Brunello di Montalcino, Tuscany, Italy",95.0,Cerbaiona,Italy,43.0419448,11.5255422
"Cesari winery ,Amarone della Valpolicella Classico, Veneto, Italy",92.18181818181819,Cesari,Italy,45.5205517,10.8869911
"Cesari winery ,Amarone della Valpolicella, Veneto, Italy",93.66666666666667,Cesari,Italy,45.5205517,10.8869911
"Cignale winery ,Colli della Toscana Centrale, Tuscany, Italy",92.5,Cignale,Italy,44.0794258,10.3311955
"Col d'Orcia winery ,Sant'Antimo, Tuscany, Italy",92.5,Col d'Orcia,Italy,42.967171,11.437808
"Colombera & Garella winery ,Bramaterra, Piedmont, Italy",92.75,Colombera & Garella,Italy,45.5039664,9.970533999999999
"Colombera & Garella winery ,Lessona, Piedmont, Italy",94.5,Colombera & Garella,Italy,45.5039664,9.970533999999999
"Colombo winery ,Piemonte, Piedmont, Italy",93.0,Colombo,Italy,45.0522366,7.5153885
"Comm. G. B. Burlotto winery ,Barolo, Piedmont, Italy",93.41666666666667,Comm. G. B. Burlotto,Italy,44.6669694,7.930855599999999
"Conti Costanti winery ,Brunello di Montalcino, Tuscany, Italy",93.0,Conti Costanti,Italy,43.051683,11.507199
"Contrade di Taurasi - Lonardo winery ,Campania, Southern Italy, Italy",92.5,Contrade di Taurasi - Lonardo,Italy,41.007938,14.957157
"Contrade di Taurasi - Lonardo winery ,Taurasi, Southern Italy, Italy",93.16666666666667,Contrade di Taurasi - Lonardo,Italy,41.007938,14.957157
"Contucci winery ,Vino Nobile di Montepulciano, Tuscany, Italy",93.0,Contucci,Italy,43.0923136,11.7814743
"Cordero di Montezemolo winery ,Barolo, Piedmont, Italy",93.0909090909091,Cordero di Montezemolo,Italy,44.64095,7.958492000000001
"Corte Pavone winery ,Brunello di Montalcino, Tuscany, Italy",92.33333333333333,Corte Pavone,Italy,43.0523493,11.452567
"Corte Sant'Alda winery ,Amarone della Valpolicella, Veneto, Italy",94.0,Corte Sant'Alda,Italy,45.486112,11.1380472
"Cupano winery ,Sant'Antimo, Tuscany, Italy",93.0,Cupano,Italy,43.0025699,11.3909354
"Dal Forno Romano winery ,Amarone della Valpolicella, Veneto, Italy",95.33333333333333,Dal Forno Romano,Italy,45.4946663,11.1736528
"Donnafugata winery ,Passito di Pantelleria, Sicily & Sardinia, Italy",93.125,Donnafugata,Italy,36.8057129,12.0217794
"E. Pira e Figli (Chiara Boschis) winery ,Barolo, Piedmont, Italy",93.0,E. Pira e Figli (Chiara Boschis),Italy,44.610032,7.940128
"Elvio Cogno winery ,Barolo, Piedmont, Italy",93.84210526315789,Elvio Cogno,Italy,44.594701,7.9381747
"Eugenio Bocchino winery ,Barolo, Piedmont, Italy",95.0,Eugenio Bocchino,Italy,44.6513567,7.9460309
"Fattoria La Massa winery ,Toscana, Tuscany, Italy",92.5,Fattoria La Massa,Italy,43.5478901,11.2876215
"Fattoria Petrolo winery ,Toscana, Tuscany, Italy",94.28571428571429,Fattoria Petrolo,Italy,43.7710513,11.2486208
"Fattoria Petrolo winery ,Vin Santo del Chianti, Tuscany, Italy",93.0,Fattoria Petrolo,Italy,43.7710513,11.2486208
"Fattoria di Felsina winery ,Toscana, Tuscany, Italy",92.5,Fattoria di Felsina,Italy,43.349499,11.501247
"Fazi Battaglia winery ,Marche, Central Italy, Italy",93.0,Fazi Battaglia,Italy,43.4806535,13.0815427
"Felsina winery ,Toscana, Tuscany, Italy",93.33333333333333,Felsina,Italy,43.349499,11.501247
"Ferrando winery ,Carema, Piedmont, Italy",94.5,Ferrando,Italy,45.5822113,7.8083161
"Feudi di San Gregorio winery ,Taurasi, Southern Italy, Italy",92.1,Feudi di San Gregorio,Italy,40.9111904,14.8675003
"Fontodi winery ,Chianti Classico, Tuscany, Italy",92.25,Fontodi,Italy,43.5309841,11.3049837
"Fontodi winery ,Colli della Toscana Centrale, Tuscany, Italy",92.8,Fontodi,Italy,43.5309841,11.3049837
"Franco M. Martinetti winery ,Barbera d'Asti, Piedmont, Italy",93.0,Franco M. Martinetti,Italy,45.066194,7.687291399999999
"Franco Molino Cascina Rocca winery ,Barolo, Piedmont, Italy",93.0,Franco Molino Cascina Rocca,Italy,44.6292265,7.956166199999998
"Fratelli Alessandria winery ,Barolo, Piedmont, Italy",92.26315789473684,Fratelli Alessandria,Italy,44.6690936,7.933866999999999
"Fuligni winery ,Brunello di Montalcino, Tuscany, Italy",92.28571428571429,Fuligni,Italy,43.0569085,11.5056558
"Fumanelli winery ,Amarone della Valpolicella Classico, Veneto, Italy",93.5,Fumanelli,Italy,45.513143,10.9012257
"G.A. Rossi di Medelana winery ,Toscana, Tuscany, Italy",94.0,G.A. Rossi di Medelana,Italy,44.7743254,11.8737294
"Gaja winery ,Barbaresco, Piedmont, Italy",93.875,Gaja,Italy,44.72599200000001,8.0807351
"Gaja winery ,Langhe, Piedmont, Italy",95.63636363636364,Gaja,Italy,44.72599200000001,8.0807351
"Germano Ettore winery ,Alta Langa, Piedmont, Italy",94.0,Germano Ettore,Italy,44.6216905,7.995693299999999
"Germano Ettore winery ,Barolo, Piedmont, Italy",92.8,Germano Ettore,Italy,44.6216905,7.995693299999999
"Giacomo Conterno winery ,Barolo, Piedmont, Italy",94.5,Giacomo Conterno,Italy,44.5805279,7.965766200000001
"Giacomo Fenocchio winery ,Barolo, Piedmont, Italy",93.5625,Giacomo Fenocchio,Italy,44.6114334,7.9599746
"Giacomo Vico winery ,Barolo, Piedmont, Italy",94.0,Giacomo Vico,Italy,44.7983213,7.987604699999999
"Gianfranco Alessandria winery ,Barolo, Piedmont, Italy",92.2,Gianfranco Alessandria,Italy,44.58367699999999,7.9546186
"Gianni Brunelli winery ,Brunello di Montalcino, Tuscany, Italy",93.0,Gianni Brunelli,Italy,43.0278979,11.5178124
"Gianni Voerzio winery ,Barolo, Piedmont, Italy",96.0,Gianni Voerzio,Italy,44.6430547,7.9300284
"Gini winery ,Recioto di Soave, Veneto, Italy",93.0,Gini,Italy,45.4414662,12.3152595
"Giovanni Rosso winery ,Barolo, Piedmont, Italy",93.0,Giovanni Rosso,Italy,44.60030760000001,8.000384600000002
"Giulio Ferrari winery ,Trento, Northeastern Italy, Italy",93.0,Giulio Ferrari,Italy,46.04414329999999,11.1135902
"Giuseppe Rinaldi winery ,Barolo, Piedmont, Italy",93.83333333333333,Giuseppe Rinaldi,Italy,44.60827159999999,7.941700399999999
"Gravner winery ,Venezia Giulia, Northeastern Italy, Italy",93.0,Gravner,Italy,45.982689,13.606573
"Guado al Tasso winery ,Bolgheri Superiore, Tuscany, Italy",93.0,Guado al Tasso,Italy,43.2043544,10.612672
"Guastaferro winery ,Taurasi, Southern Italy, Italy",94.4,Guastaferro,Italy,41.0110232,14.9604509
"Guido Porro winery ,Barolo, Piedmont, Italy",93.5,Guido Porro,Italy,44.61405999999999,8.0014
"Il Colle winery ,Brunello di Montalcino, Tuscany, Italy",95.5,Il Colle,Italy,43.0635442,11.488002
"Il Marroneto winery ,Brunello di Montalcino, Tuscany, Italy",92.08333333333333,Il Marroneto,Italy,43.0635442,11.488002
"Il Paradiso di Manfredi winery ,Brunello di Montalcino, Tuscany, Italy",94.5,Il Paradiso di Manfredi,Italy,43.0638926,11.4967361
"Il Poggione winery ,Brunello di Montalcino, Tuscany, Italy",92.375,Il Poggione,Italy,42.967171,11.437808
"Isole e Olena winery ,Toscana, Tuscany, Italy",93.5,Isole e Olena,Italy,43.7710513,11.2486208
"L'Aietta winery ,Brunello di Montalcino, Tuscany, Italy",95.0,L'Aietta,Italy,43.0551015,11.4890032
"La Ca' Nova winery ,Barbaresco, Piedmont, Italy",92.66666666666667,La Ca' Nova,Italy,44.7258919,8.085505399999999
"La Cerbaiola winery ,Brunello di Montalcino, Tuscany, Italy",93.0,La Cerbaiola,Italy,43.05586,11.4898673
"La Fortuna winery ,Brunello di Montalcino, Tuscany, Italy",92.14285714285714,La Fortuna,Italy,43.059183,11.507588
"La Poderina winery ,Moscadello di Montalcino, Tuscany, Italy",94.0,La Poderina,Italy,43.0077974,11.5305369
"La Prevostura winery ,Bramaterra, Piedmont, Italy",93.0,La Prevostura,Italy,45.5729699,8.221598499999999
"La Querciola winery ,Barolo, Piedmont, Italy",94.0,La Querciola,Italy,44.52237,7.91681
"La Spinona winery ,Barolo, Piedmont, Italy",94.5,La Spinona,Italy,44.72412,8.0773557
"Le Casematte winery ,Faro, Sicily & Sardinia, Italy",93.5,Le Casematte,Italy,38.2696375,15.5758909
"Le Chiuse winery ,Brunello di Montalcino, Tuscany, Italy",92.57142857142857,Le Chiuse,Italy,43.0686111,11.4886111
"Le Macchiole winery ,Toscana, Tuscany, Italy",92.63636363636364,Le Macchiole,Italy,43.2078087,10.6117048
"Le Piane winery ,Boca, Piedmont, Italy",94.0,Le Piane,Italy,45.6903982,8.3948207
"Le Ragnaie winery ,Brunello di Montalcino, Tuscany, Italy",92.8,Le Ragnaie,Italy,43.0335502,11.4795341
"Lis Neris winery ,Friuli, Northeastern Italy, Italy",94.5,Lis Neris,Italy,45.9293858,13.5271326
"Loacker Corte Pavone winery ,Brunello di Montalcino, Tuscany, Italy",93.0,Loacker Corte Pavone,Italy,43.0523493,11.452567
"Luciano Sandrone winery ,Barolo, Piedmont, Italy",94.75,Luciano Sandrone,Italy,44.6208903,7.954625300000001
"Luigi Baudana winery ,Barolo, Piedmont, Italy",92.57142857142857,Luigi Baudana,Italy,44.6253951,7.995799099999999
"Luigi Oddero & Figli winery ,Barolo, Piedmont, Italy",92.08333333333333,Luigi Oddero & Figli,Italy,44.6583803,7.9517523
"Manzone winery ,Barolo, Piedmont, Italy",95.0,Manzone,Italy,44.6215152,7.992768
"Marchesi Antinori winery ,Bolgheri Superiore, Tuscany, Italy",98.0,Marchesi Antinori,Italy,43.2043544,10.612672
"Marchesi Antinori winery ,Toscana, Tuscany, Italy",94.35714285714286,Marchesi Antinori,Italy,43.61238480000001,11.1915646
"Marchesi de' Frescobaldi winery ,Tuscany, Tuscany, Italy",95.0,Marchesi de' Frescobaldi,Italy,42.64336,11.22523
"Mascarello Giuseppe e Figlio winery ,Barolo, Piedmont, Italy",95.2,Mascarello Giuseppe e Figlio,Italy,44.569018,7.917308
"Masi winery ,Amarone della Valpolicella Classico, Veneto, Italy",92.63157894736842,Masi,Italy,45.5205517,10.8869911
"Masseto winery ,Toscana, Tuscany, Italy",95.5,Masseto,Italy,43.7249507,11.3893267
"Massimo Penna winery ,Barolo, Piedmont, Italy",93.0,Massimo Penna,Italy,44.665186,8.0501753
"Massolino winery ,Barolo, Piedmont, Italy",93.83333333333333,Massolino,Italy,44.60982389999999,7.9997527
"Mastroberardino winery ,Taurasi, Southern Italy, Italy",93.0,Mastroberardino,Italy,41.0077969,14.9589703
"Mauro Veglio winery ,Barolo, Piedmont, Italy",92.27272727272727,Mauro Veglio,Italy,44.6398139,7.9482841
"Michele Chiarlo winery ,Barolo, Piedmont, Italy",92.42105263157895,Michele Chiarlo,Italy,44.6239921,7.940022799999999
"Michele Satta winery ,Bolgheri Superiore, Tuscany, Italy",92.2,Michele Satta,Italy,43.1599313,10.6011888
"Milziade Antano winery ,Montefalco Sagrantino, Central Italy, Italy",95.5,Milziade Antano,Italy,42.9178331,12.6172919
"Milziade Antano winery ,Sagrantino di Montefalco, Central Italy, Italy",94.5,Milziade Antano,Italy,42.9178331,12.6172919
"Mirù winery ,Ghemme, Piedmont, Italy",94.0,Mirù,Italy,45.59695989999999,8.4233113
"Montecariano winery ,Amarone della Valpolicella Classico, Veneto, Italy",92.66666666666667,Montecariano,Italy,45.517347,10.882811
"Montepeloso winery ,Toscana, Tuscany, Italy",92.5,Montepeloso,Italy,43.0651978,10.6693289
"Monteraponi winery ,Chianti Classico, Tuscany, Italy",92.71428571428571,Monteraponi,Italy,43.467056,11.3444442
"Nino Franco winery ,Vino Spumante, Italy Other, Italy",93.0,Nino Franco,Italy,45.8973734,11.9908643
"Ornellaia winery ,Bolgheri Superiore, Tuscany, Italy",94.0,Ornellaia,Italy,43.2115188,10.6116508
"Padelletti winery ,Brunello di Montalcino, Tuscany, Italy",93.0,Padelletti,Italy,43.0596503,11.4897959
"Palari winery ,Faro, Sicily & Sardinia, Italy",92.4,Palari,Italy,38.1026109,15.4818861
"Paolo Scavino winery ,Barolo, Piedmont, Italy",93.0,Paolo Scavino,Italy,44.6308604,7.965273000000001
"Passopisciaro winery ,Terre Siciliane, Sicily & Sardinia, Italy",92.41666666666667,Passopisciaro,Italy,37.8606761,15.0231976
"Pian delle Querci winery ,Brunello di Montalcino, Tuscany, Italy",94.0,Pian delle Querci,Italy,43.091109,11.460027
"Pian delle Vigne winery ,Brunello di Montalcino, Tuscany, Italy",93.5,Pian delle Vigne,Italy,43.10219319999999,11.4899236
"Pieropan winery ,Amarone della Valpolicella, Veneto, Italy",92.5,Pieropan,Italy,45.5205517,10.8869911
"Pieropan winery ,Recioto di Soave Classico, Veneto, Italy",94.0,Pieropan,Italy,45.4223008,11.2485921
"Podere Brizio winery ,Brunello di Montalcino, Tuscany, Italy",92.42857142857143,Podere Brizio,Italy,43.0260512,11.4494998
"Podere L'Aione winery ,Toscana, Tuscany, Italy",94.0,Podere L'Aione,Italy,42.6958511,11.3041092
"Podere Rocche dei Manzoni winery ,Barolo, Piedmont, Italy",94.0,Podere Rocche dei Manzoni,Italy,44.5804239,7.955229999999999
"Podere Sapaio winery ,Bolgheri Superiore, Tuscany, Italy",94.0,Podere Sapaio,Italy,43.2336764,10.6170139
"Podere ai Valloni winery ,Boca, Piedmont, Italy",93.0,Podere ai Valloni,Italy,45.6875004,8.38125
"Poderi Aldo Conterno winery ,Barolo, Piedmont, Italy",93.5,Poderi Aldo Conterno,Italy,44.6102525,7.9651818
"Poggio Antico winery ,Toscana, Tuscany, Italy",92.4,Poggio Antico,Italy,43.0177937,11.4734066
"Poggio Scalette winery ,Toscana, Tuscany, Italy",92.5,Poggio Scalette,Italy,43.5737535,11.3469038
"Poggio Verrano winery ,Maremma, Tuscany, Italy",93.0,Poggio Verrano,Italy,42.6592952,11.2511292
"Poggio di Sotto winery ,Brunello di Montalcino, Tuscany, Italy",94.5,Poggio di Sotto,Italy,43.05586,11.4898673
"Poliziano winery ,Toscana, Tuscany, Italy",93.0,Poliziano,Italy,43.1347754,11.8444305
"Principe Corsini Fattoria Le Corti winery ,Vin Santo del Chianti Classico, Tuscany, Italy",97.0,Principe Corsini Fattoria Le Corti,Italy,43.64984070000001,11.1956344
"Produttori del Barbaresco winery ,Barbaresco, Piedmont, Italy",92.08333333333333,Produttori del Barbaresco,Italy,44.727405,8.0807749
"Proprietà Sperino winery ,Lessona, Piedmont, Italy",94.0,Proprietà Sperino,Italy,45.5593184,8.217786499999999
"Quattroventi winery ,Brunello di Montalcino, Tuscany, Italy",94.0,Quattroventi,Italy,43.0551015,11.4890032
"Querceta winery ,Brunello di Montalcino, Tuscany, Italy",92.5,Querceta,Italy,43.9762922,10.1983431
"Querciabella winery ,Toscana, Tuscany, Italy",93.0,Querciabella,Italy,43.5713889,11.3413889
"Quintarelli winery ,Amarone della Valpolicella Classico, Veneto, Italy",93.5,Quintarelli,Italy,45.5191902,10.9466056
"Radikon winery ,Venezia Giulia, Northeastern Italy, Italy",92.66666666666667,Radikon,Italy,45.982574,13.602576
"Rivetto winery ,Barolo, Piedmont, Italy",93.375,Rivetto,Italy,44.6064182,8.0093979
"Rivetto winery ,nan, Italy Other, Italy",94.0,Rivetto,Italy,44.6064182,8.0093979
"Roberto Sarotto winery ,Barbaresco, Piedmont, Italy",93.0,Roberto Sarotto,Italy,44.6870398,8.1331389
"Roccolo Grassi winery ,Amarone della Valpolicella, Veneto, Italy",94.0,Roccolo Grassi,Italy,45.4767965,11.1298138
"San Giusto a Rentennano winery ,Toscana, Tuscany, Italy",94.5,San Giusto a Rentennano,Italy,43.3704392,11.4221764
"Sandrone winery ,Barolo, Piedmont, Italy",93.71428571428571,Sandrone,Italy,44.6208903,7.954625300000001
"Schiavenza winery ,Barolo, Piedmont, Italy",93.66666666666667,Schiavenza,Italy,44.6114507,8.0013089
"Silvio Grasso winery ,Barolo, Piedmont, Italy",92.4,Silvio Grasso,Italy,44.633078,7.961257
"Sobrero winery ,Barolo, Piedmont, Italy",92.5,Sobrero,Italy,44.62407169999999,7.983541199999999
"Sottimano winery ,Barbaresco, Piedmont, Italy",93.14285714285714,Sottimano,Italy,44.7125547,8.0911476
"Speri winery ,Amarone della Valpolicella Classico, Veneto, Italy",94.0,Speri,Italy,45.5051952,10.9222131
"Tenimenti Angelini winery ,Brunello di Montalcino, Tuscany, Italy",92.71428571428571,Tenimenti Angelini,Italy,43.0722463,11.4969864
"Tenuta Argentiera winery ,Bolgheri Superiore, Tuscany, Italy",93.0,Tenuta Argentiera,Italy,43.2336764,10.6170139
"Tenuta Bellafonte winery ,Montefalco Sagrantino, Central Italy, Italy",94.0,Tenuta Bellafonte,Italy,42.94294499999999,12.562059
"Tenuta Carlina winery ,Brunello di Montalcino, Tuscany, Italy",93.0,Tenuta Carlina,Italy,43.0551015,11.4890032
"Tenuta Castelbuono winery ,Sagrantino di Montefalco, Central Italy, Italy",94.0,Tenuta Castelbuono,Italy,42.968275,12.562838
"Tenuta Montanello winery ,Barolo, Piedmont, Italy",92.5,Tenuta Montanello,Italy,44.6335247,7.972468300000001
"Tenuta Monteti winery ,Toscana, Tuscany, Italy",92.14285714285714,Tenuta Monteti,Italy,42.47690799999999,11.454105
"Tenuta San Guido winery ,Bolgheri Sassicaia, Tuscany, Italy",96.625,Tenuta San Guido,Italy,43.2322887,10.6000566
"Tenuta dell'Ornellaia winery ,Bolgheri Superiore, Tuscany, Italy",97.33333333333333,Tenuta dell'Ornellaia,Italy,43.2115188,10.6116508
"Tenuta dell'Ornellaia winery ,Bolgheri, Tuscany, Italy",94.5,Tenuta dell'Ornellaia,Italy,43.2115188,10.6116508
"Tenuta dell'Ornellaia winery ,Toscana, Tuscany, Italy",97.2,Tenuta dell'Ornellaia,Italy,43.7710513,11.2486208
"Tenuta di Biserno winery ,Bolgheri, Tuscany, Italy",92.33333333333333,Tenuta di Biserno,Italy,43.2699024,10.5978445
"Tenuta di Nozzole winery ,Toscana, Tuscany, Italy",92.5,Tenuta di Nozzole,Italy,43.6273787,11.2845759
"Tenuta di Valgiano winery ,Colline Lucchesi, Tuscany, Italy",93.0,Tenuta di Valgiano,Italy,43.9061583,10.59215
"Tenute Costa winery ,Barolo, Piedmont, Italy",94.0,Tenute Costa,Italy,44.3641538,8.087103599999999
"Tenute Lunelli winery ,Montefalco Sagrantino, Central Italy, Italy",93.0,Tenute Lunelli,Italy,42.8924442,12.648766
"Umberto Fracassi winery ,Barolo, Piedmont, Italy",94.0,Umberto Fracassi,Italy,44.6088032,7.9403041
"Vallana winery ,Gattinara, Piedmont, Italy",93.75,Vallana,Italy,45.6174044,8.3712071
"Venturini Massimino winery ,Amarone della Valpolicella Classico, Veneto, Italy",92.55555555555556,Venturini Massimino,Italy,45.5170965,10.9123098
"Vietti winery ,Barolo, Piedmont, Italy",92.08333333333333,Vietti,Italy,44.6241602,7.9789697
"Villa Cafaggio winery ,Chianti Classico, Tuscany, Italy",93.0,Villa Cafaggio,Italy,43.7710513,11.2486208
"Villa Calcinaia winery ,Vin Santo del Chianti Classico, Tuscany, Italy",93.0,Villa Calcinaia,Italy,43.6036885,11.3096933
"Volpaia winery ,Vin Santo del Chianti Classico, Tuscany, Italy",93.0,Volpaia,Italy,43.516636,11.380914
"Wiegner winery ,Etna, Sicily & Sardinia, Italy",93.0,Wiegner,Italy,37.866001,15.049885
"Zenato winery ,Amarone della Valpolicella Classico, Veneto, Italy",92.25,Zenato,Italy,45.5170825,10.8398784
"Zenato winery ,Veronese, Veneto, Italy",93.0,Zenato,Italy,45.4462202,10.6679844
